[
  {
    "id": 1,
    "name": "Domaine Sesquier",
    "category": "Domaine",
    "description": "Votre havre de paix méditerranéen. 8 gîtes de charme dans une oliveraie.",
    "lat": 43.435,
    "lng": 3.595,
    "duration_car": "0 min",
    "distance": "0 km",
    "url": "https://domaine-sesquier.com",
    "image": "https://images.unsplash.com/photo-1510414842594-a61c69b5ae57?auto=format&fit=crop&q=80&w=600"
  },
  {
    "id": 2,
    "name": "Les Étalais - Huîtres de Thau",
    "category": "Restos",
    "description": "Dégustation d'huîtres et de moules directement chez le producteur. Vue imprenable sur l'étang.",
    "lat": 43.428,
    "lng": 3.615,
    "duration_car": "8 min",
    "distance": "4 km",
    "url": "https://www.google.com/maps/search/?api=1&query=meze+huitres",
    "image": "https://images.unsplash.com/photo-1551021703-352fe8012d56?auto=format&fit=crop&q=80&w=600"
  },
  {
    "id": 3,
    "name": "Cirque de Mourèze",
    "category": "Balades nature",
    "description": "Un paysage dolomitique spectaculaire pour une randonnée hors du temps.",
    "lat": 43.618,
    "lng": 3.358,
    "duration_car": "35 min",
    "distance": "28 km",
    "url": "https://www.google.com/maps/search/?api=1&query=Cirque+de+Moureze",
    "image": "https://images.unsplash.com/photo-1464822759023-fed622ff2c3b?auto=format&fit=crop&q=80&w=600"
  },
  {
    "id": 4,
    "name": "Pézenas - Ville d'Art",
    "category": "Villages",
    "description": "Flânez dans les ruelles pavées de la cité de Molière et découvrez ses artisans.",
    "lat": 43.461,
    "lng": 3.423,
    "duration_car": "18 min",
    "distance": "12 km",
    "url": "https://www.google.com/maps/search/?api=1&query=Pezenas+Centre",
    "image": "https://images.unsplash.com/photo-1510414842594-a61c69b5ae57?auto=format&fit=crop&q=80&w=600"
  },
  {
    "id": 5,
    "name": "Plage du Lazaret - Sète",
    "category": "Plages",
    "description": "Sable fin et eaux claires aux portes de la Venise Languedocienne.",
    "lat": 43.388,
    "lng": 3.665,
    "duration_car": "25 min",
    "distance": "18 km",
    "url": "https://www.google.com/maps/search/?api=1&query=Plage+du+Lazaret+Sete",
    "image": "https://images.unsplash.com/photo-1507525428034-b723cf961d3e?auto=format&fit=crop&q=80&w=600"
  },
  {
    "id": 6,
    "name": "Marché de Mèze",
    "category": "Marchés",
    "description": "Un marché authentique sous les halles et sur l'esplanade. Produits du terroir.",
    "lat": 43.425,
    "lng": 3.606,
    "duration_car": "5 min",
    "distance": "3 km",
    "url": "https://www.google.com/maps/search/?api=1&query=Marche+Meze",
    "image": "https://images.unsplash.com/photo-1488459711635-0c4a4349758a?auto=format&fit=crop&q=80&w=600"
  }
]
